,city,Lat,Lng,temp,hum,pres,cloud,wind,country,date
0,aklavik,68.219916,-135.0077881,50.0,93.0,1012.0,90.0,8.05,CA,1596020360.0
1,punta arenas,-53.1638329,-70.9170683,41.0,75.0,1011.0,40.0,18.34,CL,1596025815.0
2,rikitea,-23.1223034,-134.9691543,72.81,81.0,1021.0,8.0,12.55,PF,1596036920.0
3,ushuaia,-54.8019121,-68.3029511,39.2,87.0,1005.0,40.0,32.21,AR,1596025597.0
4,teguise,29.0720515,-13.5668302,80.6,57.0,1012.0,20.0,25.28,ES,1596003200.0
5,chuy,36.0603092,-95.8561644,77.81,83.0,1013.0,90.0,9.17,US,1596022119.0
6,cap malheureux,-19.986874,57.61274239999999,72.0,77.0,1021.0,16.0,5.01,MU,1595990425.0
7,hermanus,-34.4092004,19.2504436,55.0,87.0,1024.0,0.0,11.74,ZA,1596001108.0
8,pechenga,69.5453378,31.210038,66.2,63.0,1012.0,20.0,16.11,RU,1595978083.0
9,srednekolymsk,67.43730699999999,153.728674,43.57,85.0,1014.0,80.0,5.68,RU,1596038436.0
11,isla mujeres,21.2321799,-86.73409339999999,87.21,70.0,1017.0,40.0,13.87,MX,1596021567.0
12,srivardhan,18.0594018,73.0228173,79.63,86.0,1006.0,100.0,3.76,IN,1595983514.0
13,clyde river,70.47636500000002,-68.60126509999999,46.4,81.0,1012.0,40.0,5.82,CA,1595999059.0
14,port alfred,-33.5864065,26.8851448,59.02,75.0,1020.0,0.0,14.09,ZA,1595999179.0
15,nizhneyansk,71.450058,136.1122279,38.97,87.0,1020.0,100.0,9.24,RU,0.0
16,hambantota,6.1428829,81.12123079999999,80.02,78.0,1009.0,79.0,16.62,LK,1595982600.0
17,karauzyak,43.0174717,60.011507,78.8,31.0,1011.0,8.0,6.93,UZ,1595983661.0
18,barrow,34.0142667,-83.6986568,86.74,62.0,1018.0,40.0,5.82,US,1596019461.0
19,grand river south east,-20.2888094,57.78141199999999,71.8,83.0,1021.0,75.0,10.29,MU,1595990412.0
20,ahipara,-35.1713483,173.1533404,54.79,84.0,1029.0,100.0,9.26,NZ,1596050636.0
21,isangel,-19.54172,169.2803499,73.54,75.0,1013.0,82.0,16.11,VU,1596049967.0
22,ketchikan,55.34222219999999,-131.6461112,60.1,72.0,1016.0,1.0,3.36,US,1596026981.0
23,hilo,19.7241106,-155.0868193,65.46,78.0,1017.0,40.0,3.36,US,1596038120.0
24,upernavik,72.7862882,-56.1375527,43.34,90.0,1014.0,99.0,5.5,GL,0.0
25,jimma,7.673890800000001,36.8357927,59.65,89.0,1016.0,26.0,2.77,ET,1595993102.0
26,vuktyl,63.8461612,57.3083399,54.82,84.0,1011.0,14.0,5.73,RU,1595977910.0
27,vaini,-21.1935,-175.1751534,66.2,88.0,1018.0,75.0,14.99,TO,1596132761.0
28,cidreira,-30.1769388,-50.2089142,52.27,62.0,1027.0,61.0,8.97,BR,1596017294.0
29,bredasdorp,-34.5385222,20.0568771,59.0,72.0,1022.0,0.0,5.82,ZA,1596000930.0
30,jamestown,37.2116383,-76.7752102,85.87,66.0,1016.0,1.0,4.7,US,1596017384.0
31,boa vista,38.743466,-120.7304297,85.62,25.0,1017.0,1.0,5.82,US,1596027725.0
32,ancud,-41.8675003,-73.8276965,46.4,75.0,1018.0,75.0,6.93,CL,1596024416.0
33,baie-saint-paul,47.4424059,-70.50408399999999,74.23,67.0,1009.0,40.0,6.11,CA,1596014208.0
34,mahebourg,-20.4059505,57.7034222,71.6,83.0,1021.0,75.0,10.29,MU,1595990442.0
35,dikson,73.507735,80.53103010000001,49.37,76.0,1018.0,94.0,12.19,RU,0.0
36,kysyl-syr,63.89784700000001,122.762485,46.29,76.0,1018.0,0.0,5.46,RU,1596048725.0
37,kieta,-6.2204747,155.6376301,78.48,76.0,1008.0,29.0,2.59,PG,1596052117.0
38,tuktoyaktuk,69.445358,-133.034181,46.4,87.0,1014.0,90.0,4.7,CA,1596017947.0
39,mount gambier,-37.8284212,140.7803529,41.0,93.0,1025.0,75.0,4.7,AU,1596058731.0
40,baghdad,33.315241,44.3660671,107.6,23.0,999.0,15.0,4.7,IQ,1595988794.0
41,cape town,-33.9248685,18.4240553,58.3,82.0,1023.0,20.0,9.17,ZA,1596001250.0
42,chokurdakh,70.622169,147.916168,43.03,75.0,1016.0,91.0,8.41,RU,1596033123.0
43,uige,-7.173673200000001,15.4068079,73.4,69.0,1014.0,20.0,6.93,AO,1595999455.0
44,cumaribo,4.444922,-69.79807869999999,88.48,59.0,1010.0,5.0,5.23,CO,1596018963.0
45,thompson,36.9953799,-95.622744,76.32,94.0,1013.0,75.0,6.93,US,1596021936.0
46,broken hill,-31.9539135,141.4539396,46.4,42.0,1025.0,0.0,7.94,AU,1596057869.0
47,east london,51.55633,0.0655092,74.03,36.0,1019.0,30.0,9.17,GB,1595996353.0
48,humaita,-7.5169609,-63.0298508,97.16,26.0,1010.0,0.0,5.7,BR,1596018307.0
49,qaanaaq,77.4670434,-69.2284827,40.84,76.0,1016.0,66.0,1.57,GL,0.0
50,albany,42.6525793,-73.7562317,87.1,46.0,1011.0,4.0,1.99,US,1596015850.0
51,taolanaro,-25.0225309,46.9853688,71.6,88.0,1017.0,75.0,11.41,MG,1595993447.0
52,bermeo,43.4188248,-2.7269756,73.71,69.0,1017.0,90.0,3.36,ES,1595998663.0
53,samusu,-14.0056774,-171.4299586,75.0,94.0,1009.0,78.0,8.01,WS,1596131240.0
54,illoqqortoormiut,70.48556909999999,-21.9628757,41.49,75.0,1013.0,11.0,6.08,GL,1595987521.0
55,palabuhanratu,-6.9852341,106.5475399,75.99,83.0,1006.0,26.0,5.88,ID,1596063960.0
56,bluff,37.2844448,-109.5517877,82.4,28.0,1026.0,0.0,3.36,US,1596025243.0
57,hobyo,5.3515922,48.5249751,78.39,78.0,1011.0,17.0,20.42,SO,1595990490.0
58,kapaa,22.0881391,-159.3379818,76.28,83.0,1018.0,90.0,17.22,US,1596038916.0
59,karaul,70.070114,83.23083489999999,52.09,81.0,1015.0,62.0,9.17,RU,1596051245.0
60,atuona,-9.8028605,-139.0398069,78.78,78.0,1014.0,12.0,22.26,PF,1596036734.0
61,mar del plata,-38.0054771,-57.5426106,53.89,46.0,1026.0,0.0,9.17,AR,1596019975.0
62,phuket,7.8804479,98.3922504,82.2,100.0,1010.0,75.0,1.12,TH,1596064718.0
63,hithadhoo,-0.6060574,73.0892245,83.46,73.0,1011.0,19.0,17.29,MV,1595985079.0
64,bonavista,48.6533449,-53.11182489999999,59.0,85.0,1014.0,47.0,4.0,CA,1596009784.0
65,ilulissat,69.2198118,-51.0986031,44.6,75.0,1013.0,40.0,6.93,GL,1595998611.0
66,hobart,-42.8821377,147.3271949,46.09,70.0,1017.0,75.0,6.93,AU,1596057864.0
67,grindavik,63.8441808,-22.4383818,53.6,81.0,1012.0,75.0,5.82,IS,1595997098.0
68,halifax,44.6475811,-63.5727683,84.52,69.0,715.0,20.0,9.17,CA,1596013064.0
69,puerto ayora,-0.7432918,-90.3156893,71.2,69.0,1013.0,40.0,18.34,EC,1596024307.0
70,avarua,-21.2129007,-159.7823059,69.8,88.0,1011.0,91.0,6.93,CK,1596042695.0
71,kudahuvadhoo,2.6707463,72.8943768,83.44,78.0,1011.0,96.0,16.58,MV,1595984860.0
72,goderich,43.7428345,-81.7138942,76.68,76.0,1010.0,30.0,8.12,CA,1596017578.0
73,riyadh,24.7135517,46.6752957,105.8,15.0,1004.0,44.0,4.7,SA,1595989197.0
74,kavieng,-2.5781167,150.8086082,81.64,70.0,1008.0,0.0,5.08,PG,1596052983.0
75,saskylakh,71.954308,114.1198349,46.65,85.0,1024.0,0.0,5.12,RU,0.0
76,constitucion,29.9199404,-106.7960624,88.97,26.0,1013.0,0.0,5.12,MX,1596025490.0
77,busselton,-33.6531584,115.3454892,44.19,85.0,1015.0,26.0,2.77,AU,1596064322.0
78,wingham,51.27505,1.21501,67.82,52.0,1017.0,18.0,4.0,GB,1595996144.0
79,wilmington,34.2103894,-77.8868117,90.46,59.0,1016.0,1.0,6.93,US,1596018041.0
80,provideniya,64.4031643,-173.2064559,49.42,89.0,1009.0,100.0,8.99,RU,1596119601.0
81,saint-philippe,-21.3035757,55.7356129,66.4,88.0,1021.0,75.0,10.29,RE,1595990994.0
82,klaksvik,62.2271922,-6.5779064,48.2,93.0,1014.0,100.0,19.46,FO,1595994204.0
83,beringovskiy,63.0611249,179.3485395,52.23,86.0,1004.0,37.0,12.01,RU,1596035611.0
84,severo-kurilsk,50.6683424,156.115192,51.84,89.0,1009.0,85.0,14.52,RU,1596045561.0
85,ossora,59.23308199999999,163.067535,55.15,91.0,998.0,100.0,2.89,RU,1596041330.0
86,te anau,-45.4144699,167.7180006,49.98,85.0,1023.0,100.0,5.59,NZ,1596053376.0
87,rio brilhante,-21.8047006,-54.5432691,66.07,59.0,1019.0,68.0,8.9,BR,1596017499.0
88,tuytepa,41.0459316,69.35331049999999,84.2,16.0,1011.0,0.0,9.17,UZ,1595981734.0
89,krasnoselkup,65.69455599999999,82.525613,52.02,74.0,1013.0,92.0,2.95,RU,1595970534.0
90,jinka,29.7410598,-95.3695577,79.74,94.0,1017.0,90.0,5.82,US,1596022766.0
91,shenjiamen,31.32316399999999,121.59359,83.28,90.0,1008.0,100.0,1.01,CN,1596056931.0
92,shache,38.414217,77.245761,84.43,19.0,1004.0,48.0,15.41,CN,1596066680.0
93,kargil,34.5538522,76.1348944,69.91,38.0,1014.0,47.0,8.41,IN,1595981014.0
94,roma,36.0765489,-95.9035442,78.26,83.0,1013.0,90.0,9.17,US,1596022126.0
95,butaritari,3.1166667,172.8,83.08,76.0,1007.0,95.0,16.55,KI,1596047247.0
96,barentsburg,78.0648475,14.2334597,55.4,76.0,1017.0,68.0,8.05,SJ,0.0
97,del rio,29.3708857,-100.8958674,87.04,58.0,1016.0,75.0,10.29,US,1596024135.0
98,osoyoos,49.032304,-119.468163,80.8,34.0,1013.0,20.0,9.17,CA,1596025645.0
99,kidal,18.4520713,1.4096535,101.44,19.0,1006.0,30.0,10.38,ML,1596000669.0
100,calabozo,8.9180089,-67.4158925,86.23,73.0,1010.0,26.0,3.76,VE,1596018022.0
101,itinga,-16.6949469,-41.8646584,87.04,28.0,1017.0,11.0,5.41,BR,1596013998.0
102,khatanga,71.964027,102.4406129,53.13,71.0,1022.0,26.0,7.61,RU,0.0
103,tsihombe,-25.3168473,45.48630929999999,66.94,71.0,1018.0,0.0,3.98,MG,1595993836.0
104,new norfolk,-42.7828332,147.0593848,44.71,78.0,1016.0,25.0,1.99,AU,1596057914.0
105,chilliwack,49.1579401,-121.9514666,74.05,60.0,1014.0,5.0,5.82,CA,1596026213.0
106,aguimes,27.9018327,-15.4463485,78.89,57.0,1012.0,20.0,34.45,ES,1596003779.0
107,santiago del estero,-27.7833574,-64.264167,63.9,27.0,1023.0,0.0,11.05,AR,1596020413.0
108,barbar,29.737064,-95.5069614,76.96,94.0,1017.0,90.0,5.82,US,1596022799.0
109,xushan,24.383333,121.23,83.19,82.0,978.0,27.0,4.88,TW,1596057761.0
110,leh,34.1525864,77.57705349999999,66.2,33.0,1014.0,44.0,7.09,IN,1595980717.0
111,mataura,-46.193922,168.8655083,47.88,90.0,1023.0,100.0,4.0,NZ,1596053232.0
112,kortkeros,61.81713560000001,51.5568693,60.8,93.0,1009.0,20.0,1.66,RU,1595980436.0
113,grafton,43.3197265,-87.9534226,81.01,47.0,1014.0,40.0,9.17,US,1596019147.0
114,bethel,36.0599965,-95.797855,78.06,83.0,1013.0,90.0,9.17,US,1596022105.0
115,zhuanghe,39.680811,122.967328,73.99,84.0,1010.0,16.0,1.72,CN,1596055519.0
116,utiroa,-1.204189,174.75942,81.84,79.0,1008.0,96.0,17.4,KI,1596047124.0
117,sitka,57.0530556,-135.33,55.4,87.0,1017.0,1.0,3.36,US,1596027321.0
118,axim,34.37111520000001,-118.5619625,80.24,53.0,1015.0,5.0,5.55,US,1596027787.0
119,lorengau,-2.0298424,147.2743657,81.39,66.0,1007.0,84.0,4.59,PG,1596053788.0
120,sorvag,62.07129279999999,-7.3058656,48.2,93.0,1014.0,95.0,19.46,FO,1595994463.0
121,cabo san lucas,22.8905327,-109.9167371,84.96,51.0,1013.0,20.0,10.29,MX,1596026974.0
122,san cristobal,16.7369928,-92.63759879999999,86.0,58.0,1015.0,40.0,9.17,MX,1596023401.0
124,port elizabeth,-33.9608369,25.6022423,57.2,76.0,1020.0,0.0,11.41,ZA,1595999532.0
125,chingirlau,51.0980599,54.08407159999999,70.57,50.0,1017.0,33.0,4.41,KZ,1595983488.0
127,svetlaya,46.5399919,138.3167952,67.89,88.0,1012.0,0.0,4.56,RU,1596050696.0
128,lebu,-37.6097143,-73.6483294,50.11,56.0,1016.0,71.0,2.66,CL,1596023787.0
129,rawson,29.8049574,-95.46298759999999,84.22,94.0,1017.0,90.0,5.82,US,1596022781.0
130,sawtell,-30.3720946,153.0942431,51.12,93.0,1017.0,40.0,1.12,AU,1596054905.0
131,arraial do cabo,-22.9673373,-42.0268099,76.66,78.0,1019.0,75.0,12.75,BR,1596014607.0
132,aksarka,66.5583101,67.7877623,50.29,80.0,1013.0,91.0,3.96,RU,1595973329.0
133,ribeira grande,37.8210369,-25.5148137,73.4,88.0,1019.0,40.0,11.41,PT,1596004988.0
134,aquidauana,-20.46526,-55.78509589999999,79.77,44.0,1018.0,8.0,7.85,BR,1596017677.0
135,geraldton,-28.7796535,114.6144452,51.8,76.0,1020.0,0.0,8.05,AU,1596063969.0
136,fairbanks,64.8377778,-147.7163888,53.22,81.0,1019.0,90.0,5.66,US,1596026572.0
137,sinnamary,5.3746712,-52.9545991,86.05,66.0,1011.0,3.0,12.17,GF,1596014843.0
138,kruisfontein,-33.9843356,24.732102,54.0,80.0,1021.0,0.0,7.31,ZA,1595999743.0
139,burnie,-41.0528583,145.9052168,45.0,74.0,1011.0,0.0,3.0,AU,1596057936.0
140,vytegra,61.00515240000001,36.4534032,65.5,93.0,1004.0,100.0,6.35,RU,1595984462.0
141,sembakung,3.8024611,117.2205771,74.25,98.0,1009.0,100.0,1.34,ID,1596060532.0
142,arlit,18.7390029,7.3894772,102.25,18.0,1006.0,16.0,9.26,NE,1595999206.0
143,amderma,69.751221,61.6636961,46.47,92.0,1016.0,69.0,7.29,RU,1595970253.0
144,rio cuarto,-33.1231585,-64.3493441,62.6,14.0,1024.0,0.0,20.8,AR,1596021012.0
145,bambous virieux,-20.3438619,57.7636821,71.78,83.0,1021.0,75.0,10.29,MU,1595990421.0
146,sao filipe,14.8951679,-24.4945636,77.27,86.0,1010.0,78.0,5.06,CV,1596007206.0
147,california city,35.125801,-117.9859038,89.06,19.0,1016.0,1.0,3.36,US,1596027554.0
148,bandarbeyla,9.498579999999999,50.8105261,79.84,75.0,1008.0,82.0,26.17,SO,1595989595.0
149,high rock,46.6843415,-121.9017461,72.32,52.0,1011.0,0.0,2.73,US,1596026702.0
150,wolfsburg,52.4226503,10.7865461,68.0,45.0,1019.0,58.0,11.41,DE,1595993563.0
151,sinegorye,62.0865124,150.5288146,43.79,75.0,1014.0,76.0,5.17,RU,1596043062.0
152,vanimo,-2.6896767,141.2998457,76.86,86.0,1008.0,29.0,4.85,PG,1596055274.0
153,mys shmidta,68.8931114,-179.4125967,39.31,77.0,1007.0,58.0,5.28,RU,1596116908.0
154,georgetown,38.9076089,-77.07225849999999,90.54,40.0,1015.0,20.0,8.05,US,1596017216.0
155,santa maria la alta,18.6089475,-97.6534547,72.0,71.0,1018.0,88.0,5.01,MX,1596024434.0
156,saldanha,-33.0276981,17.9176312,59.0,77.0,1023.0,0.0,4.7,ZA,1596001266.0
157,ponta do sol,32.6854883,-17.0864266,71.08,60.0,1016.0,40.0,11.41,PT,1596003628.0
158,bubaque,11.283333,-15.833333,79.41,82.0,1010.0,94.0,20.8,GW,1596005440.0
159,roald,38.611777,-122.8703331,62.85,87.0,1014.0,90.0,4.29,US,1596028257.0
160,poronaysk,49.2213887,143.1001742,58.48,89.0,1010.0,0.0,2.13,RU,1596049009.0
161,muros,42.8073676,-9.0460525,81.0,61.0,1010.0,0.0,3.0,ES,1596000282.0
162,kargasok,59.0535405,80.8770602,56.61,74.0,1008.0,97.0,9.4,RU,1596061157.0
163,bukama,-9.1522423,25.8285153,73.35,29.0,1013.0,0.0,2.89,CD,1595997117.0
164,tiksi,71.63748199999999,128.8644716,40.17,85.0,1021.0,98.0,6.44,RU,0.0
165,yulara,-25.2334936,130.9848698,42.8,33.0,1023.0,0.0,4.7,AU,1596059686.0
166,muisne,0.6116136999999999,-80.02065499999999,84.2,79.0,1012.0,40.0,6.93,EC,1596021726.0
167,ginda,42.02533280000001,-88.0795237,84.9,58.0,1014.0,1.0,5.82,US,1596019389.0
168,yellowknife,62.4539717,-114.3717887,68.68,56.0,1012.0,40.0,8.05,CA,1596020007.0
169,manado,1.4748305,124.8420794,75.2,94.0,1008.0,40.0,5.08,ID,1596058891.0
170,kaitangata,-46.2859133,169.846066,48.0,82.0,1022.0,100.0,3.0,NZ,1596053014.0
171,padang,-0.9470831999999999,100.417181,75.49,77.0,1011.0,89.0,3.69,ID,1596064945.0
172,szabadszallas,46.8763076,19.2232539,83.77,61.0,1016.0,20.0,9.17,HU,1595992766.0
173,sibolga,1.7368371,98.78511209999999,75.54,71.0,1011.0,100.0,4.94,ID,1596065121.0
174,muzhi,65.40260099999999,64.7059967,51.42,80.0,1013.0,54.0,4.34,RU,1595975051.0
175,ilo,38.91139099999999,-77.065219,90.54,40.0,1015.0,20.0,8.05,US,1596017216.0
176,santiago de cuba,20.01693,-75.8301537,89.6,66.0,1015.0,40.0,10.29,CU,1596019065.0
177,grand gaube,-20.014212,57.6694082,72.0,77.0,1021.0,20.0,5.99,MU,1595990413.0
178,pahrump,36.2082943,-115.9839147,95.29,9.0,1006.0,0.0,4.0,US,1596026931.0
179,richards bay,-28.7807276,32.0382856,64.13,90.0,1020.0,5.0,4.88,ZA,1595997414.0
180,qaqortoq,60.71898640000001,-46.03534579999999,57.2,71.0,1012.0,75.0,10.29,GL,1596004427.0
181,gizo,-8.1058258,156.8349986,82.27,75.0,1008.0,2.0,7.2,SB,1596051985.0
182,kahului,20.8893351,-156.4729469,75.0,69.0,1017.0,40.0,8.05,US,1596038342.0
183,tarudant,30.4727126,-8.8748765,82.4,54.0,1008.0,1.0,11.41,MA,1596001914.0
184,castro,37.7609082,-122.4350043,57.67,72.0,1014.0,40.0,11.41,US,1596028273.0
185,port hedland,-20.3839142,118.6483796,57.2,62.0,1017.0,0.0,8.05,AU,1596062190.0
186,chastoozerye,55.5718334,67.9139661,52.9,63.0,1015.0,45.0,4.47,RU,1595978957.0
187,korla,41.725891,86.17463300000001,84.99,61.0,991.0,60.0,4.0,CN,1596064047.0
188,pevek,69.7029321,170.307033,36.05,90.0,1010.0,89.0,4.92,RU,1596031106.0
189,tiarei,-17.5391608,-149.3714069,78.4,74.0,1011.0,75.0,18.34,PF,1596039868.0
190,lichinga,-13.3023564,35.2478112,59.23,72.0,1019.0,66.0,2.98,MZ,1595995204.0
191,macaboboni,16.1952956,119.7802409,78.17,87.0,1004.0,100.0,6.29,PH,1596058876.0
192,shingu,33.7241203,135.9924819,76.24,89.0,1014.0,85.0,3.0,JP,1596053188.0
193,dingle,52.14093889999999,-10.2640135,62.6,88.0,1013.0,90.0,9.17,IE,1595998692.0
194,longyearbyen,78.22317220000001,15.6267229,57.2,71.0,1017.0,77.0,10.29,SJ,0.0
195,saint george,37.0965278,-113.5684164,94.03,11.0,1008.0,0.0,1.48,US,1596026233.0
196,russell,38.8952893,-98.8598061,82.4,69.0,1013.0,40.0,3.36,US,1596022450.0
197,bathsheba,37.676748,-97.26482,78.44,88.0,1013.0,75.0,5.82,US,1596022237.0
198,sur,34.0812288,-118.3853088,71.28,77.0,1014.0,75.0,6.93,US,1596027782.0
199,rio claro,-22.4149023,-47.5651394,80.6,47.0,1020.0,47.0,5.82,BR,1596015884.0
200,bol,39.6422735,-106.3751831,66.06,41.0,1037.0,1.0,13.87,US,1596024149.0
201,chake chake,-5.2505483,39.7807076,75.52,82.0,1016.0,3.0,14.14,TZ,1595993450.0
202,wattegama,7.3491464,80.6853986,69.03,91.0,1008.0,69.0,5.48,LK,1595982603.0
203,yacuiba,-22.0227557,-63.6775234,59.0,51.0,1027.0,90.0,5.82,BO,1596019713.0
204,general roca,-39.032803,-67.5892227,48.2,57.0,1022.0,59.0,2.24,AR,1596022521.0
205,codrington,17.6425736,-61.8204456,78.8,88.0,1010.0,75.0,12.75,AG,1596015922.0
206,baruun-urt,46.6652838,113.2876804,62.92,77.0,1006.0,27.0,1.86,MN,1596056683.0
207,hobbs,37.1557452,-95.59678029999999,76.3,94.0,1013.0,75.0,6.93,US,1596021910.0
208,prestea,5.437319899999999,-2.1401139,77.23,76.0,1011.0,85.0,6.44,GH,1596002642.0
209,katsuura,35.1522272,140.3208833,70.45,100.0,1016.0,75.0,1.12,JP,1596051970.0
210,tugulym,57.0592288,64.6411772,59.0,72.0,1013.0,91.0,4.47,RU,1595979260.0
211,sentyabrskiy,60.49545690000001,72.2080598,49.77,93.0,1012.0,79.0,3.24,RU,1595976099.0
212,saleaula,-13.4482906,-172.3367114,75.0,94.0,1009.0,51.0,8.01,WS,1596131411.0
213,los llanos de aridane,28.6183515,-17.8998566,76.55,57.0,1015.0,20.0,13.87,ES,1596004289.0
214,adrar,28.0174403,-0.2642497,113.0,8.0,1007.0,47.0,9.17,DZ,1596000119.0
215,ixtapa,17.6625661,-101.58734,86.0,74.0,1013.0,75.0,3.36,MX,1596025467.0
216,boda,43.6533285,-70.26659099999999,85.77,43.0,1012.0,20.0,12.75,US,1596014846.0
217,marawi,8.0106213,124.297718,75.0,95.0,1008.0,100.0,5.01,PH,1596058489.0
218,kinshasa,-4.4419311,15.2662931,85.05,51.0,1012.0,20.0,9.17,CD,1595999266.0
219,la libertad,13.490697,-89.3084607,85.91,52.0,1012.0,20.0,4.7,SV,1596022888.0
220,le port,-20.9456859,55.295055,66.47,77.0,1021.0,90.0,8.05,RE,1595991067.0
221,souillac,44.893626,1.478613,89.01,37.0,1015.0,0.0,1.01,FR,1595997397.0
222,alta floresta,-9.8672231,-56.0870033,95.13,19.0,1012.0,0.0,7.56,BR,1596016835.0
223,petatlan,17.5390397,-101.2701934,86.0,74.0,1013.0,75.0,3.36,MX,1596025401.0
224,lagunas,-4.6681951,-75.9927652,88.12,56.0,1011.0,6.0,3.36,PE,1596021185.0
225,nome,30.03577,-94.42435719999999,90.14,59.0,1017.0,40.0,8.05,US,1596022504.0
226,kalakamati,-20.633333,27.3,66.2,34.0,1023.0,0.0,5.82,BW,1595997756.0
227,west wendover,40.739097,-114.073345,82.4,32.0,1021.0,1.0,4.7,US,1596025831.0
228,benito soliven,16.9347472,121.9245556,74.16,96.0,1005.0,98.0,0.78,PH,1596058297.0
230,novikovo,46.363217,143.3583363,61.2,94.0,1013.0,5.0,9.86,RU,1596049519.0
231,saint-augustin,51.2327688,-58.65154440000001,65.82,57.0,1014.0,0.0,11.52,CA,1596010539.0
232,baillif,16.0301297,-61.7414904,82.4,83.0,1009.0,100.0,13.87,GP,1596016047.0
233,walvis bay,-22.9584081,14.5057511,61.92,63.0,1017.0,0.0,5.82,NA,1596001041.0
234,mayumba,-3.4426092,10.6562606,72.9,81.0,1013.0,80.0,9.62,GA,1596000291.0
235,rungata,-1.3493599,176.445007,81.68,74.0,1008.0,55.0,14.97,KI,1596046731.0
236,cozumel,20.4229839,-86.9223432,89.29,59.0,1017.0,75.0,10.29,MX,1596021690.0
237,igrim,63.1967494,64.4226214,52.3,61.0,1013.0,60.0,2.98,RU,1595976594.0
238,pisco,38.9039822,-77.0426401,90.75,40.0,1015.0,20.0,8.05,US,1596017210.0
239,montauban,44.0221252,1.3529599,86.41,48.0,1016.0,24.0,8.05,FR,1595997581.0
240,oranjemund,-28.5597111,16.4346979,56.07,79.0,1021.0,0.0,14.65,NA,1596001136.0
241,boyuibe,-20.4413004,-63.27982249999999,63.59,28.0,1022.0,61.0,7.16,BO,1596019471.0
242,nanortalik,60.1424955,-45.2394951,47.14,91.0,1012.0,100.0,8.79,GL,1596004491.0
243,bengkulu,-3.792845099999999,102.2607641,74.71,91.0,1012.0,50.0,5.95,ID,1596064731.0
244,flinders,41.05471730000001,-73.5407915,84.83,61.0,1014.0,40.0,11.41,US,1596016050.0
245,kodiak,57.79000000000001,-152.4072221,57.2,71.0,1019.0,1.0,4.7,US,1596031170.0
246,nuuk,64.18140989999999,-51.6941381,46.2,100.0,1012.0,90.0,4.7,GL,1596003917.0
247,ranfurly,-45.1301244,170.100422,39.99,93.0,1026.0,94.0,4.54,NZ,1596052759.0
248,tigre,43.0379864,-89.4525263,82.24,45.0,1014.0,1.0,5.82,US,1596019554.0
249,amapa,0.9019925,-52.0029565,89.2,47.0,1010.0,14.0,4.43,BR,1596014978.0
250,lompoc,34.6391501,-120.4579409,59.72,82.0,1015.0,90.0,3.36,US,1596028209.0
251,texarkana,33.425125,-94.04768820000001,86.41,62.0,1016.0,20.0,12.75,US,1596022018.0
252,naze,43.6176083,-79.6649295,82.53,51.0,1011.0,75.0,11.41,CA,1596017106.0
253,huimanguillo,17.8320441,-93.3918106,89.6,62.0,1014.0,40.0,16.11,MX,1596023483.0
254,talnakh,69.5,88.39999999999999,53.6,76.0,1016.0,24.0,11.18,RU,1596051297.0
255,cherskiy,68.742677,161.3507839,40.75,80.0,1010.0,88.0,13.31,RU,1596034981.0
256,coihaique,-45.5712254,-72.068265,41.0,65.0,1017.0,96.0,4.7,CL,1596024576.0
257,nemuro,43.3301005,145.5828181,59.74,93.0,1016.0,8.0,11.61,JP,1596049521.0
258,gambela,8.2471899,34.5915966,71.71,93.0,1013.0,75.0,2.19,ET,1595993593.0
259,okato,-39.1910834,173.8799294,42.1,72.0,1031.0,91.0,4.0,NZ,1596050971.0
260,yar-sale,66.86258699999999,70.854469,53.24,77.0,1012.0,100.0,3.31,RU,1595972306.0
261,leninskoye,47.9265806,132.5807594,66.65,92.0,1010.0,0.0,3.58,RU,1596051804.0
262,carnarvon,-24.8877473,113.6621827,60.8,100.0,1017.0,0.0,8.05,AU,1596063808.0
263,hofn,64.24970259999999,-15.2020077,55.4,76.0,1014.0,75.0,8.05,IS,1595995094.0
264,verkhnyaya inta,65.98442829999999,60.32114929999999,51.98,65.0,1013.0,29.0,8.52,RU,1595975640.0
265,coquimbo,-29.9590009,-71.3389183,57.2,71.0,1014.0,0.0,12.75,CL,1596022339.0
266,college,41.8685058,-88.0996112,85.19,62.0,1014.0,1.0,8.05,US,1596019419.0
267,taoudenni,22.6764132,-3.9789143,106.59,17.0,1006.0,24.0,6.11,ML,1596001561.0
268,paramonga,-10.6784649,-77.8195739,65.79,64.0,1015.0,54.0,9.24,PE,1596022116.0
269,qixingtai,30.411196,111.892868,82.0,85.0,998.0,97.0,3.8,CN,1596059364.0
270,xuanzhou,30.946249,118.756589,78.31,87.0,1008.0,100.0,4.09,CN,1596057653.0
271,cockburn town,21.4674584,-71.13891009999999,83.25,80.0,1017.0,1.0,20.87,TC,1596017802.0
272,tautira,-17.7496214,-149.1611957,78.4,74.0,1011.0,75.0,18.34,PF,1596039836.0
273,bilma,18.6929789,12.9176518,100.87,14.0,1003.0,25.0,2.1,NE,1595997884.0
274,attawapiskat,52.9258846,-82.42889219999999,62.6,77.0,1007.0,90.0,10.29,CA,1596015829.0
275,pingliang,35.543061,106.665131,65.1,78.0,1008.0,34.0,1.79,CN,1596060000.0
276,tawnat,34.536917,-4.6398693,97.79,19.0,1012.0,16.0,12.86,MA,1596000410.0
277,kapoeta,4.771316199999999,33.5923941,76.75,69.0,1011.0,12.0,4.94,SS,1595994121.0
278,laytown,53.68063009999999,-6.2374498,58.64,77.0,1017.0,75.0,8.05,IE,1595997323.0
279,agirish,61.9276281,63.016679,50.67,70.0,1012.0,54.0,5.88,RU,1595977625.0
280,mrirt,33.16271400000001,-5.5669786,85.73,29.0,1013.0,73.0,15.77,MA,1596000805.0
281,salo,41.883416,-87.642162,87.17,48.0,1013.0,75.0,11.41,US,1596019307.0
282,meyungs,7.352715099999999,134.4488579,77.0,94.0,1008.0,75.0,9.08,PW,1596056107.0
283,jiuquan,39.73287,98.494548,72.75,36.0,1009.0,0.0,5.1,CN,1596061391.0
284,belawan,3.784303,98.694221,77.0,94.0,1009.0,40.0,4.7,ID,1596064981.0
285,tabiauea,0.9182079999999999,173.027965,80.6,74.0,1007.0,90.0,12.75,KI,1596047369.0
287,altay,50.6181924,86.2199308,47.01,94.0,1010.0,98.0,4.25,RU,1596062365.0
288,zhigansk,66.75206399999999,123.3941119,47.91,75.0,1018.0,0.0,15.64,RU,1596046426.0
289,portobelo,9.5488889,-79.6530174,88.02,66.0,1011.0,40.0,4.7,PA,1596020905.0
290,boueni,-12.9099576,45.0805029,77.0,83.0,1017.0,40.0,16.11,YT,1595992812.0
291,avera,43.4888898,-96.76579199999999,81.05,51.0,1014.0,75.0,12.75,US,1596021237.0
292,dhidhdhoo,6.887353099999999,73.113569,82.4,79.0,1010.0,100.0,16.98,MV,1595984461.0
293,bogomila,41.5943098,21.4767756,91.4,31.0,1014.0,0.0,6.93,MK,1595993146.0
294,blythe,33.6177725,-114.5882607,102.02,29.0,1010.0,1.0,16.11,US,1596026926.0
295,catuday,16.2872621,119.8178676,78.58,86.0,1004.0,100.0,6.98,PH,1596058858.0
296,narsaq,60.9129622,-46.0504831,57.2,71.0,1012.0,75.0,10.29,GL,1596004343.0
297,honiara,-9.4456381,159.9728999,75.2,100.0,1008.0,20.0,3.65,SB,1596051341.0
298,payo,26.7957942,-101.4222355,84.02,74.0,1014.0,75.0,2.89,MX,1596024537.0
299,manoel urbano,-8.837898299999999,-69.2619624,92.28,37.0,1011.0,19.0,4.07,BR,1596019910.0
300,aykhal,65.94171899999999,111.4881131,53.6,66.0,1021.0,100.0,4.47,RU,1596049994.0
301,dharchula,29.8473422,80.5369058,74.5,63.0,1012.0,100.0,1.1,IN,1595980517.0
302,vilyuysk,63.74644029999999,121.6276667,46.83,83.0,1018.0,3.0,4.7,RU,1596049089.0
303,chanika,-7.003815599999999,39.0811598,77.0,73.0,1015.0,75.0,6.93,TZ,1595993761.0
304,norman wells,65.28149379999999,-126.8286524,57.2,100.0,1013.0,90.0,11.41,CA,1596021228.0
305,humberto de campos,-2.6052556,-43.463896,87.78,54.0,1010.0,11.0,2.48,BR,1596013212.0
306,fushun,41.880872,123.957208,71.6,100.0,1010.0,20.0,2.24,CN,1596054948.0
307,nhulunbuy,-12.1825,136.781944,69.8,77.0,1013.0,11.0,10.29,AU,1596057131.0
308,homer,36.5208983,-93.39601809999999,80.22,74.0,1016.0,90.0,6.93,US,1596021467.0
309,atherton,37.4613272,-122.197743,67.75,82.0,1015.0,75.0,4.7,US,1596028257.0
310,camacha,32.679852,-16.8502879,71.26,60.0,1016.0,40.0,11.41,PT,1596003572.0
311,pacific grove,36.6177374,-121.9166215,56.66,95.0,1014.0,63.0,7.23,US,1596028303.0
312,torbay,50.4619209,-3.525315,66.72,70.0,1019.0,30.0,5.01,GB,1595997477.0
313,tres arroyos,-38.3775437,-60.27522949999999,53.2,43.0,1025.0,0.0,7.14,AR,1596020681.0
314,sechura,-5.5622396,-80.8187744,73.65,51.0,1012.0,20.0,9.91,PE,1596022417.0
315,pitimbu,-7.472544800000001,-34.8081102,77.0,94.0,1014.0,75.0,13.87,BR,1596011531.0
316,kamenka,53.1916124,43.9856692,68.92,58.0,1017.0,57.0,2.86,RU,1595985386.0
317,granada,37.1773363,-3.5985571,101.97,13.0,1012.0,20.0,10.29,ES,1595999814.0
318,corner brook,48.9489967,-57.95027260000001,62.78,77.0,1016.0,90.0,8.05,CA,1596010883.0
319,victoria,28.8052674,-97.0035982,80.11,74.0,1017.0,90.0,27.51,US,1596023260.0
320,rizhao,35.416734,119.526925,71.02,90.0,1011.0,69.0,2.01,CN,1596056927.0
321,riverton,40.521893,-111.9391023,81.18,39.0,1022.0,1.0,3.36,US,1596025353.0
322,yerbogachen,61.2776586,108.0136671,50.76,93.0,1017.0,12.0,5.46,RU,1596053682.0
323,tahoua,14.8904575,5.2579968,93.2,44.0,1010.0,20.0,6.93,NE,1596000065.0
324,longlac,49.78166599999999,-86.534706,64.4,77.0,1013.0,90.0,9.17,CA,1596017569.0
325,sale,37.8786759,-95.7392296,80.82,78.0,1014.0,75.0,12.75,US,1596021845.0
326,urdoma,61.7508827,48.5359582,60.33,94.0,1009.0,100.0,1.7,RU,1595981197.0
327,makakilo city,21.3469444,-158.0858333,73.36,83.0,1017.0,1.0,17.76,US,1596038687.0
328,fort nelson,58.8050174,-122.697236,57.2,87.0,1015.0,75.0,5.82,CA,1596023652.0
329,houston,29.7604267,-95.3698028,79.83,94.0,1017.0,90.0,5.82,US,1596022764.0
330,taunggyi,20.7887571,97.0337141,62.91,100.0,1009.0,32.0,3.71,MM,1596063918.0
331,saint-joseph,31.1197493,-97.70115369999999,89.6,49.0,1016.0,20.0,12.75,US,1596023168.0
332,ayan,26.141621,-81.79444,91.13,55.0,1020.0,75.0,9.17,US,1596019893.0
333,ahuimanu,21.4416709,-157.8361137,76.55,69.0,1016.0,75.0,12.75,US,1596038619.0
334,north bend,47.4956579,-121.7867775,72.12,69.0,1012.0,0.0,3.0,US,1596026516.0
335,kalmar,56.6634447,16.3567791,63.28,67.0,1009.0,44.0,13.87,SE,1595990997.0
336,vila velha,-20.3477821,-40.2949528,82.06,54.0,1017.0,0.0,11.41,BR,1596013947.0
337,jiexiu,37.026945,111.916711,76.05,59.0,1010.0,59.0,2.64,CN,1596058543.0
338,sharlyk,54.9013396,55.1421498,66.2,77.0,1015.0,75.0,6.71,RU,1595982228.0
339,buraydah,26.3592309,43.98181200000001,109.4,19.0,1003.0,74.0,6.93,SA,1595989675.0
340,tilsonburg,42.8658879,-80.7333175,79.5,57.0,1013.0,75.0,9.17,CA,1596017488.0
341,poum,-20.2349574,164.0329499,73.26,91.0,1011.0,85.0,21.27,NC,1596051289.0
342,tevaitoa,-16.792843,-151.4915628,80.49,74.0,1012.0,100.0,19.71,PF,1596040312.0
343,havre-saint-pierre,50.24181400000001,-63.598569,60.8,82.0,1013.0,90.0,10.29,CA,1596011958.0
344,comarapa,-17.9104524,-64.5296061,58.41,69.0,1018.0,92.0,3.91,BO,1596019544.0
345,ngukurr,-14.7327677,134.7323319,54.68,70.0,1016.0,32.0,9.1,AU,1596057838.0
346,polson,47.69320039999999,-114.1631275,81.43,56.0,1013.0,0.0,3.6,US,1596024646.0
347,dongsheng,39.822507,109.963338,75.87,48.0,1006.0,84.0,17.6,CN,1596058623.0
348,wonthaggi,-38.6089501,145.5911028,49.69,94.0,1022.0,13.0,10.67,AU,1596057679.0
349,hamilton,37.9426096,-96.19513200000002,78.42,83.0,1013.0,90.0,10.29,US,1596021947.0
350,half moon bay,37.4635519,-122.4285862,63.82,100.0,1015.0,90.0,6.22,US,1596028312.0
351,pizarro,27.6932799,-97.3452143,88.2,74.0,1016.0,75.0,17.22,US,1596023466.0
352,maiduguri,11.8310981,13.1509672,85.51,62.0,1008.0,67.0,9.42,NG,1595998437.0
353,matata,40.384785,-74.09409,84.34,62.0,1013.0,2.0,1.01,US,1596016284.0
354,xining,36.617134,101.778223,60.19,61.0,1012.0,51.0,4.34,CN,1596061033.0
355,manicore,-5.8049963,-61.28999349999999,93.2,41.0,1013.0,0.0,9.17,BR,1596017749.0
356,belmonte,29.1416166,-110.9618554,92.93,56.0,1013.0,40.0,5.82,MX,1596026576.0
357,arona,28.0999496,-16.679977,75.13,61.0,1013.0,20.0,25.28,ES,1596004053.0
358,solnechnyy,50.7180855,136.6376379,69.6,84.0,1009.0,2.0,3.2,RU,1596050229.0
359,semey,50.4233463,80.250811,66.2,57.0,1011.0,98.0,7.18,KZ,1595977359.0
360,bismarck,46.8083268,-100.7837392,81.81,39.0,1015.0,1.0,10.29,US,1596021604.0
361,moerai,-22.4512228,-151.3431677,71.98,78.0,1012.0,100.0,21.09,PF,1596040784.0
362,pueblo bello,10.40873,-73.59139990000001,95.0,47.0,1011.0,20.0,11.41,CO,1596019378.0
363,togur,58.3615767,82.8403008,57.07,84.0,1005.0,100.0,6.31,RU,1596060947.0
364,mujiayingzi,42.288342,118.920597,69.91,68.0,1009.0,0.0,5.84,CN,1596056093.0
365,margate,26.2445263,-80.206436,90.63,59.0,1020.0,40.0,12.75,US,1596019503.0
366,raga,41.2016667,-73.88499999999999,87.96,48.0,1012.0,4.0,1.01,US,1596016109.0
367,chapais,49.78221,-74.85248,60.8,87.0,1008.0,90.0,3.36,CA,1596014764.0
368,tigil,57.779388,158.5752259,51.87,96.0,1003.0,100.0,5.77,RU,1596042952.0
369,inyonga,-6.7255046,32.0553349,69.51,41.0,1013.0,44.0,6.15,TZ,1595995423.0
370,bechem,41.38902849999999,-81.34267679999999,84.49,59.0,1013.0,7.0,5.01,US,1596017871.0
371,asyut,27.1783117,31.1859257,97.2,15.0,1006.0,27.0,11.14,EG,1595992659.0
372,tanshui,25.1719805,121.4433706,84.65,74.0,1008.0,40.0,10.29,TW,1596057631.0
374,barranca,-10.7525374,-77.7599218,64.89,65.0,1015.0,57.0,9.08,PE,1596022108.0
375,el carmen,25.9375976,-100.3638252,72.14,88.0,1018.0,90.0,4.7,MX,1596024372.0
376,faanui,-16.5004126,-151.7414904,75.96,83.0,1012.0,92.0,18.45,PF,1596040346.0
377,tual,-5.626563,132.7520867,78.03,84.0,1009.0,99.0,22.01,ID,1596057562.0
378,high prairie,55.43289910000001,-116.4886918,72.54,55.0,1013.0,64.0,3.98,CA,1596023311.0
379,lisa,36.1463276,-95.9972323,78.51,83.0,1013.0,90.0,9.17,US,1596022141.0
380,catacamas,14.8437223,-85.8793252,79.39,71.0,1015.0,99.0,3.89,HN,1596021947.0
381,malwan,16.0630693,73.471054,80.15,85.0,1007.0,100.0,13.62,IN,1595983588.0
382,zhangjiakou,40.76754400000001,114.886335,72.55,69.0,1010.0,54.0,4.54,CN,1596057297.0
383,airai,7.396611799999999,134.5690225,77.0,94.0,1008.0,75.0,8.59,PW,1596056074.0
384,lara,39.0896207,-94.6831478,82.96,69.0,1013.0,75.0,10.29,US,1596021419.0
385,bac lieu,37.7452578,-122.4204128,58.24,72.0,1014.0,40.0,11.41,US,1596028270.0
386,monrovia,34.1442616,-118.0019482,76.51,56.0,1014.0,1.0,3.36,US,1596027681.0
387,kadykchan,63.088212,147.0379573,43.99,80.0,1014.0,93.0,1.9,RU,1596043364.0
388,hostotipaquillo,21.216667,-103.85,72.81,77.0,1010.0,99.0,5.99,MX,1596025678.0
389,aksu,41.168779,80.260605,78.28,28.0,1010.0,27.0,7.92,CN,1596065553.0
390,urengoy,65.96178739999999,78.3726069,53.4,75.0,1011.0,71.0,7.54,RU,1595971313.0
391,batagay-alyta,67.79280899999999,130.4017789,40.86,77.0,1019.0,2.0,2.39,RU,1596043668.0
392,bollnas,61.34837950000001,16.3942685,64.0,76.0,1002.0,40.0,1.99,SE,1595989124.0
393,velyka oleksandrivka,47.3211543,33.3032699,76.93,58.0,1016.0,8.0,6.73,UA,1595989298.0
394,smirnykh,49.7451066,142.8271369,59.68,89.0,1009.0,5.0,3.58,RU,1596048960.0
395,maragogi,-9.010362599999999,-35.2208449,76.68,79.0,1015.0,77.0,17.34,BR,1596011756.0
396,yelanskiy,49.5975763,42.1704131,75.92,32.0,1017.0,20.0,1.12,RU,1595986692.0
397,ulcinj,41.9310884,19.2147632,92.97,23.0,1013.0,0.0,4.7,ME,1595993637.0
398,nyurba,63.2803099,118.3618985,47.46,91.0,1020.0,0.0,3.29,RU,1596050153.0
399,zunyi,27.725654,106.927389,70.72,86.0,1008.0,100.0,2.3,CN,1596060848.0
400,moose factory,51.262486,-80.59296499999999,69.8,73.0,1007.0,75.0,9.17,CA,1596015803.0
401,tayshet,55.9321466,98.0105748,56.7,92.0,1007.0,72.0,2.89,RU,1596058122.0
402,sioux lookout,50.0978321,-91.922038,66.2,72.0,1016.0,75.0,2.24,CA,1596018793.0
403,husavik,66.0449706,-17.3383442,55.4,71.0,1012.0,20.0,12.75,IS,1595994279.0
404,tukrah,32.5326308,20.5870955,78.89,76.0,1012.0,0.0,12.21,LY,1595994600.0
405,poykovskiy,61.00094499999999,71.9032807,50.27,87.0,1012.0,88.0,3.33,RU,1595975944.0
406,barra dos coqueiros,-10.9136791,-37.0292986,75.2,83.0,1016.0,75.0,11.41,BR,1596012347.0
407,ahmadpur east,29.1459,71.2517835,102.58,33.0,997.0,77.0,16.82,PK,1595982826.0
408,sarkand,45.4131077,79.917079,62.96,50.0,1013.0,44.0,7.23,KZ,1595978463.0
410,esperance,-33.8613103,121.8914238,53.6,87.0,1024.0,0.0,8.05,AU,1596062778.0
411,oksfjord,70.239572,22.3478534,67.95,63.0,1010.0,100.0,4.7,NO,1595978202.0
412,rincon,18.3402164,-67.2500174,84.92,78.0,1011.0,52.0,5.99,PR,1596017161.0
413,abha,18.2464685,42.5117238,65.25,88.0,1021.0,93.0,5.82,SA,1595990821.0
414,campeche,19.8301251,-90.5349087,89.6,66.0,1016.0,40.0,11.41,MX,1596022612.0
415,labuhan,-6.372081,105.832298,76.21,81.0,1011.0,14.0,8.97,ID,1596064082.0
416,oktyabrskiy,54.4772015,53.4895394,63.12,82.0,1016.0,32.0,3.98,RU,1595982747.0
417,prince rupert,54.3150367,-130.3208187,59.0,82.0,1015.0,1.0,3.36,CA,1596026959.0
418,kirovskiy,45.0956164,133.4980776,63.7,91.0,1013.0,1.0,2.06,RU,1596052118.0
419,atar,44.946391,-93.168921,80.8,47.0,1014.0,40.0,4.7,US,1596020120.0
420,chokwe,-24.5323166,32.9831998,64.76,54.0,1019.0,0.0,6.4,MZ,1595996760.0
421,daru,-9.078195899999999,143.2099707,75.09,87.0,1010.0,98.0,15.77,PG,1596055332.0
422,caravelas,41.6957235,-71.1634636,86.41,54.0,1013.0,1.0,9.17,US,1596015378.0
423,juneau,58.3019444,-134.4197221,57.11,82.0,1018.0,40.0,8.05,US,1596026661.0
424,faya,17.9236623,19.1107114,101.14,12.0,1003.0,12.0,10.54,TD,1595996468.0
425,tasiilaq,65.6134561,-37.6335696,44.6,75.0,1012.0,75.0,11.41,GL,1595999512.0
426,udankudi,8.4271424,78.0260488,81.3,70.0,1008.0,100.0,12.84,IN,1595983152.0
427,umzimvubu,-30.7781755,28.9528645,51.17,44.0,1022.0,0.0,5.99,ZA,1595998369.0
428,abu samrah,35.3537811,36.9715691,87.49,28.0,1007.0,0.0,10.42,SY,1595990315.0
429,nautla,20.2066604,-96.7729224,89.29,57.0,1014.0,100.0,9.17,MX,1596024074.0
430,madona,56.854995,26.2255149,59.38,77.0,1011.0,11.0,7.99,LV,1595988561.0
431,paita,-5.0938488,-81.0962172,71.6,60.0,1013.0,1.0,13.87,PE,1596022446.0
432,turukhansk,65.79585999999999,87.962418,57.54,64.0,1014.0,89.0,8.21,RU,1596055768.0
433,jambi,-1.6101229,103.6131203,73.71,88.0,1011.0,59.0,0.29,ID,1596064233.0
434,namatanai,-3.6528325,152.3917226,79.56,79.0,1008.0,6.0,5.82,PG,1596052690.0
435,dubbo,-32.2315018,148.6329645,41.0,100.0,1021.0,40.0,4.7,AU,1596056178.0
436,saryshagan,46.119266,73.6086655,73.2,39.0,1013.0,20.0,12.08,KZ,1595979847.0
437,mantua,45.1564168,10.7913751,89.31,63.0,1012.0,0.0,1.99,IT,1595995113.0
438,port keats,-14.250637,129.549659,61.66,30.0,1015.0,0.0,10.92,AU,1596059040.0
439,teya,60.377472,92.651665,55.11,89.0,1009.0,63.0,3.33,RU,1596057782.0
440,kangaatsiaq,68.30737839999999,-53.4569232,44.22,81.0,1013.0,84.0,11.12,GL,1596000592.0
441,matara,5.95492,80.5549561,78.17,88.0,1009.0,63.0,10.8,LK,1595982753.0
442,aswan,24.088938,32.8998293,100.51,26.0,1004.0,25.0,13.82,EG,1595992568.0
443,salalah,17.0193843,54.11075049999999,82.4,88.0,1004.0,75.0,6.93,OM,1595988148.0
444,orlik,49.5098791,14.1655127,74.62,54.0,1008.0,48.0,3.89,CZ,1595993438.0
445,pangnirtung,66.1465578,-65.7012182,51.8,93.0,1012.0,75.0,3.36,CA,1596005824.0
446,santiago,-33.4488897,-70.6692655,65.34,22.0,1017.0,0.0,2.06,CL,1596022566.0
447,lipin bor,60.2615318,37.9796654,66.29,92.0,1005.0,100.0,7.23,RU,1595984434.0
448,kavaratti,10.5593204,72.63581340000002,81.01,79.0,1009.0,100.0,20.76,IN,1595984266.0
449,umm lajj,25.026409,37.27076,85.37,78.0,1004.0,0.0,3.04,SA,1595991423.0
450,iqaluit,63.74669300000001,-68.5169669,69.8,46.0,1013.0,75.0,17.22,CA,1596008237.0
451,yaan,29.980537,103.013261,70.2,88.0,1010.0,100.0,2.71,CN,1596061544.0
452,dwarka,22.2441975,68.96845619999999,85.24,78.0,1002.0,99.0,17.69,IN,1595984091.0
453,rio gallegos,-51.6230485,-69.2168291,37.4,69.0,1013.0,50.0,13.87,AR,1596025054.0
454,zlatoustovsk,52.9647131,133.5624884,61.86,88.0,1010.0,0.0,2.15,RU,1596050422.0
455,isabela,16.9753758,121.8107079,74.44,95.0,1005.0,99.0,1.32,PH,1596058319.0
456,honningsvag,70.9822909,25.9702075,59.0,77.0,1012.0,2.0,4.7,NO,0.0
457,port-cartier,50.0212524,-66.8760025,59.68,93.0,1013.0,90.0,12.75,CA,1596012796.0
458,meulaboh,4.1436951,96.12811459999999,78.85,76.0,1011.0,100.0,2.1,ID,1596065566.0
460,guerrero negro,27.9591758,-114.056646,80.46,50.0,1010.0,11.0,7.0,MX,1596027449.0
461,port augusta,-32.4952339,137.7894394,42.94,93.0,1027.0,90.0,4.7,AU,1596058809.0
462,xai-xai,-25.060476,33.6958809,64.42,81.0,1020.0,0.0,7.05,MZ,1595996639.0
463,chifeng,42.25785,118.886931,69.69,69.0,1009.0,0.0,5.84,CN,1596056105.0
464,plover,44.4563579,-89.5440069,77.74,53.0,1014.0,40.0,7.7,US,1596019335.0
465,mbandaka,0.0265717,18.2970692,74.7,78.0,1010.0,89.0,4.23,CD,1595998177.0
466,carutapera,-1.2097936,-46.022953,85.17,65.0,1011.0,31.0,4.68,BR,1596013713.0
467,fortuna,40.5981867,-124.1572756,57.24,93.0,1014.0,90.0,4.7,US,1596028276.0
468,shitanjing,40.70229700000001,100.912152,78.58,35.0,1002.0,14.0,9.31,CN,1596060665.0
469,marsh harbour,26.5241653,-77.09098089999999,84.22,69.0,1020.0,82.0,11.7,BS,1596018725.0
470,taltal,-25.3101988,-69.8613827,72.84,11.0,1016.0,69.0,9.86,CL,1596021509.0
471,alice springs,-23.698042,133.8807471,41.0,38.0,1023.0,0.0,4.7,AU,1596058843.0
472,catamarca,-28.4715877,-65.7877209,64.0,33.0,1017.0,7.0,8.01,AR,1596020851.0
473,mackay,-21.1424956,149.1821469,47.05,93.0,1017.0,0.0,3.36,AU,1596054934.0
474,placido de castro,-10.3240904,-67.1874892,91.76,36.0,1012.0,28.0,4.61,BR,1596019536.0
475,la macarena,2.1831929,-73.7843783,82.22,82.0,1011.0,31.0,4.52,CO,1596020102.0
476,hun,40.3372103,-74.6861637,91.27,35.0,1014.0,1.0,6.93,US,1596016435.0
477,stuttgart,48.7758459,9.1829321,78.64,26.0,1019.0,8.0,6.93,DE,1595994793.0
478,panguna,-6.308009,155.477221,66.67,100.0,1008.0,15.0,1.68,PG,1596052163.0
479,mount isa,-20.7255748,139.4927085,59.0,51.0,1019.0,0.0,9.17,AU,1596057222.0
480,sal rei,16.183349,-22.9148168,86.0,62.0,1010.0,75.0,13.87,CV,1596006713.0
481,iracoubo,5.4809494,-53.2099707,85.05,70.0,1011.0,1.0,12.55,GF,1596014896.0
482,alofi,-19.0553711,-169.9178709,68.0,72.0,1014.0,2.0,6.93,NU,1596044933.0
483,okhotsk,59.35845999999999,143.2034909,62.83,77.0,1006.0,100.0,18.61,RU,1596046055.0
484,santarem,39.2848804,-8.704075,93.0,10.0,1010.0,0.0,15.03,PT,1596000744.0
485,krasnoborsk,61.5467387,45.9455532,60.08,95.0,1008.0,94.0,3.49,RU,1595981919.0
486,tremembe,-22.9638438,-45.5525137,73.4,56.0,1021.0,75.0,4.7,BR,1596015451.0
487,asmara,15.3228767,38.9250517,58.08,90.0,1012.0,100.0,7.2,ER,1595991945.0
488,miranda,37.8073737,-122.2695684,59.32,77.0,1015.0,90.0,4.7,US,1596028225.0
489,terrace,37.2193837,-95.70702639999999,75.88,94.0,1013.0,90.0,9.17,US,1596021928.0
490,olga,38.924684,-90.17445200000002,86.72,74.0,1015.0,40.0,5.82,US,1596020360.0
492,mersing,2.430917,103.8361151,77.0,94.0,1011.0,100.0,2.24,MY,1596063853.0
494,chaozhou,23.656703,116.622756,82.4,88.0,1008.0,20.0,4.47,CN,1596058939.0
495,tabou,41.93973099999999,-87.651067,86.72,48.0,1013.0,75.0,11.41,US,1596019300.0
496,kiruna,67.8557995,20.225282,60.8,77.0,1008.0,100.0,6.93,SE,1595983409.0
497,manzhouli,49.597841,117.378529,63.27,85.0,1005.0,54.0,2.28,CN,1596055106.0
498,kachikau,-18.153243,24.5034739,62.6,42.0,1020.0,0.0,2.98,NA,1595998204.0
499,guaca,6.876227000000001,-72.856219,78.8,65.0,1015.0,75.0,6.93,CO,1596019497.0
500,tilichiki,60.43333299999999,166.0486109,54.36,89.0,999.0,100.0,3.29,RU,1596040115.0
501,gat,42.080733,-88.2572151,83.89,58.0,1014.0,1.0,5.82,US,1596019424.0
502,mairwa,26.238432,84.14615189999999,83.77,80.0,1002.0,100.0,6.08,IN,1595980043.0
503,portland,45.5051064,-122.6750261,72.97,57.0,1015.0,0.0,3.36,US,1596027107.0
504,zolotinka,56.1854557,124.8636895,62.44,89.0,1010.0,96.0,6.22,RU,1596051588.0
505,khani,29.5609719,-95.3888619,78.82,94.0,1018.0,90.0,3.36,US,1596022791.0
506,caborca,30.6954438,-112.1835004,93.97,63.0,1010.0,21.0,1.99,MX,1596026693.0
507,lagoa,37.1356176,-8.4514359,80.6,54.0,1010.0,0.0,9.17,PT,1596000984.0
508,nioro,15.2323839,-9.590751400000002,81.64,74.0,1007.0,96.0,12.57,ML,1596003600.0
509,hasaki,40.72969990000001,-73.98881349999999,89.04,55.0,1014.0,1.0,6.93,US,1596016207.0
510,baykit,61.6833669,96.38062029999999,58.42,90.0,1015.0,32.0,5.84,RU,1596056287.0
511,san andres,12.5450153,-81.7075787,86.0,79.0,1013.0,75.0,10.29,CO,1596021145.0
512,mandurah,-32.5361038,115.7424077,51.01,82.0,1024.0,0.0,7.11,AU,1596064102.0
513,baiyin,36.545015,104.138586,69.42,64.0,1016.0,6.0,2.24,CN,1596060476.0
514,atikokan,48.7597531,-91.6181716,68.76,54.0,1014.0,94.0,6.44,CA,1596019012.0
515,tuatapere,-46.1316001,167.6896954,52.84,79.0,1021.0,100.0,8.32,NZ,1596053505.0
516,puerto escondido,15.8719795,-97.0767365,87.8,66.0,1014.0,75.0,6.93,MX,1596024545.0
517,ouallam,14.3147935,2.0885853,95.4,32.0,1008.0,35.0,5.73,NE,1596000877.0
518,barao de cocais,-19.9409449,-43.48131859999999,83.57,24.0,1021.0,40.0,3.36,BR,1596014675.0
519,mackenzie,36.135367,-95.9893419,78.51,83.0,1013.0,90.0,9.17,US,1596022140.0
520,westport,41.1414717,-73.3579049,86.58,54.0,1014.0,1.0,8.05,US,1596015993.0
521,chalus,45.6497264,0.9798756000000001,84.54,37.0,1018.0,0.0,5.82,FR,1595997380.0
522,hays,38.8791783,-99.3267702,83.5,74.0,1013.0,40.0,6.93,US,1596022566.0
523,berlevag,70.85778839999999,29.0859086,60.8,72.0,1013.0,0.0,18.34,NO,0.0
524,louisbourg,45.9221352,-59.9713119,74.1,83.0,1010.0,46.0,5.01,CA,1596011970.0
525,ligayan,4.6518587,119.4614578,84.18,71.0,1007.0,100.0,5.21,PH,1596059925.0
526,touros,-5.1961669,-35.4635381,82.4,69.0,1012.0,40.0,12.75,BR,1596011502.0
527,lata,39.9565109,-82.8497895,85.86,48.0,1016.0,20.0,4.7,US,1596018451.0
528,leningradskiy,55.7760848,37.655356,74.08,82.0,1012.0,40.0,11.18,RU,1595986161.0
529,henties bay,-22.1134964,14.2832038,59.0,87.0,1017.0,0.0,4.0,NA,1596001017.0
530,mattru,7.6042266,-12.1718486,76.21,86.0,1011.0,79.0,6.44,SL,1596004871.0
531,tempio pausania,40.9031356,9.104066999999999,91.4,46.0,1015.0,0.0,6.93,IT,1595996227.0
532,lubao,14.9021333,120.5509358,77.36,94.0,1005.0,90.0,2.24,PH,1596058805.0
533,carauari,-4.881702,-66.9045726,93.4,40.0,1010.0,23.0,5.14,BR,1596019021.0
534,bowen,37.4148581,-79.14247929999999,89.01,52.0,1017.0,1.0,4.7,US,1596017923.0
535,arinos,-15.9118937,-46.1039976,88.41,23.0,1015.0,0.0,5.48,BR,1596014947.0
536,bell ville,-32.6305078,-62.68885689999999,59.0,33.0,1025.0,0.0,9.95,AR,1596020558.0
537,roebourne,-20.9596491,116.6081653,66.38,47.0,1016.0,0.0,4.29,AU,1596062732.0
538,galle,6.0535185,80.2209773,79.39,87.0,1009.0,62.0,12.93,LK,1595982824.0
539,kon tum,14.3497403,108.0004606,71.29,92.0,1007.0,93.0,1.32,VN,1596061866.0
540,romans-sur-isere,45.044236,5.052735,83.95,45.0,1015.0,34.0,6.93,FR,1595996513.0
541,liepaja,56.5046678,21.010806,62.6,72.0,1011.0,21.0,20.8,LV,1595989932.0
542,cumberland,36.1237687,-95.8327766,78.33,83.0,1013.0,90.0,9.17,US,1596022104.0
543,veinticinco de mayo,-35.4324208,-60.1716334,57.0,37.0,1030.0,0.0,4.0,AR,1596020281.0
544,mokobeng,-22.9988503,27.6845508,57.33,37.0,1021.0,0.0,3.09,BW,1595997885.0
545,iralaya,14.9974643,-83.2251702,89.6,70.0,1014.0,40.0,9.17,HN,1596021297.0
546,tailai,40.65596010000001,-73.9103241,87.21,55.0,1014.0,1.0,6.93,US,1596016199.0
547,saint anthony,35.4780968,-97.52379789999999,82.38,78.0,1014.0,75.0,12.75,US,1596022593.0
548,asau,-13.5191366,-172.6294361,80.82,77.0,1010.0,67.0,24.14,WS,1596131487.0
549,huntsville,34.7303688,-86.5861037,82.17,74.0,1017.0,90.0,3.36,US,1596020065.0
550,peleduy,59.64244499999999,112.722862,51.82,80.0,1014.0,28.0,10.47,RU,1596053268.0
551,tumannyy,68.878911,35.6675264,53.35,81.0,1015.0,0.0,16.93,RU,1595978267.0
552,qasigiannguit,68.8219742,-51.1817888,44.6,75.0,1013.0,40.0,6.93,GL,1595999305.0
553,quartucciu,39.2537215,9.1747474,88.05,66.0,1015.0,0.0,9.17,IT,1595996456.0
554,port blair,11.6233774,92.7264828,82.74,79.0,1008.0,99.0,16.49,IN,1595979353.0
555,benguela,-12.5905158,13.416501,71.6,83.0,1014.0,20.0,9.17,AO,1596000382.0
556,quiruvilca,-8.002344899999999,-78.3095598,52.57,42.0,1014.0,0.0,7.87,PE,1596022013.0
557,ponazyrevo,58.35669970000001,46.3155001,64.85,92.0,1010.0,99.0,6.67,RU,1595983198.0
558,keshabpur,22.905463,89.2193801,81.32,89.0,1005.0,100.0,8.72,BD,1595979164.0
559,kipushi,-11.7602273,27.2499749,60.37,53.0,1016.0,68.0,3.02,CD,1595996994.0
560,batsfjord,70.6345012,29.7178451,53.6,87.0,1015.0,75.0,24.16,NO,0.0
561,morganton,35.7454071,-81.6848188,88.66,42.0,1018.0,1.0,4.7,US,1596018754.0
562,waitara,-39.0023586,174.2353221,45.0,72.0,1031.0,100.0,4.0,NZ,1596050859.0
563,champerico,14.2974022,-91.9087026,87.8,62.0,1015.0,40.0,6.93,GT,1596023442.0
564,botngard,63.7688697,9.8113943,61.59,87.0,1001.0,20.0,16.11,NO,1595989385.0
565,camacupa,-12.0181443,17.4736016,64.87,28.0,1014.0,0.0,3.22,AO,1595999362.0
566,siwana,25.6516961,72.4245092,89.06,60.0,1001.0,95.0,12.24,IN,1595982921.0
567,koungheul,13.9802139,-14.8016887,86.11,68.0,1008.0,99.0,10.83,SN,1596004960.0
568,san rafael del sur,11.8469126,-86.4364441,89.6,62.0,1012.0,20.0,11.41,NI,1596022340.0
569,acapulco,16.8531086,-99.8236533,87.8,66.0,1012.0,40.0,4.7,MX,1596025115.0
570,caico,-6.4599655,-37.0936867,94.42,30.0,1011.0,4.0,16.87,BR,1596011996.0
571,tecoanapa,16.987876,-99.25969049999999,87.8,66.0,1012.0,40.0,4.7,MX,1596024968.0
572,bestobe,52.5017027,73.0947195,58.51,63.0,1015.0,19.0,6.44,KZ,1595978575.0
573,kuloy,61.0301974,42.49056789999999,63.75,94.0,1007.0,89.0,4.54,RU,1595983001.0
574,ambulu,-8.3813553,113.6085612,66.88,83.0,1013.0,58.0,4.43,ID,1596062378.0
575,christchurch,-43.5319957,172.6396575,50.58,100.0,1027.0,75.0,13.87,NZ,1596051894.0
576,port-gentil,-0.7351025999999999,8.7591311,75.2,94.0,1012.0,90.0,15.05,GA,1596000529.0
577,gandajika,-6.7397149,23.9476988,75.56,23.0,1010.0,12.0,1.9,CD,1595997370.0
578,sorland,67.6635735,12.6926738,59.0,82.0,1003.0,64.0,11.41,NO,1595985461.0
579,tonj,7.267511499999999,28.678979,71.73,94.0,1011.0,34.0,2.91,SS,1595995093.0
580,manbij,36.5352848,37.9678652,87.8,31.0,1008.0,0.0,5.82,SY,1595989918.0
581,jurm,34.018909,-117.941262,75.27,56.0,1014.0,1.0,3.36,US,1596027681.0
582,sisimiut,66.9394722,-53.6733857,49.98,65.0,1012.0,94.0,5.21,GL,1596002205.0
583,bilibino,68.05359949999999,166.448224,42.73,65.0,1008.0,99.0,7.25,RU,1596034677.0
584,acarau,-2.897903,-40.1192437,85.87,53.0,1011.0,0.0,15.1,BR,1596012434.0
585,yibin,28.751836,104.643159,72.81,95.0,1007.0,95.0,4.29,CN,1596061288.0
586,longyan,25.075123,117.017536,74.52,87.0,1009.0,95.0,0.85,CN,1596058701.0
587,yauya,-8.9907893,-77.2915151,62.13,29.0,1015.0,0.0,2.95,PE,1596021849.0
588,ostrovnoy,68.0603191,39.4740385,52.59,79.0,1015.0,0.0,13.96,RU,1595978527.0
589,liverpool,32.6564981,-115.4763241,96.57,44.0,1009.0,1.0,9.17,MX,1596027256.0
590,port macquarie,-31.433333,152.9,55.99,89.0,1018.0,2.0,11.88,AU,1596055065.0
591,garachine,8.0317688,-78.3159411,83.43,76.0,1010.0,49.0,6.08,PA,1596020713.0
592,ugoofaaru,5.6675876,73.03019680000001,82.85,79.0,1010.0,100.0,18.16,MV,1595984581.0
593,atambua,-9.101628999999999,124.9120662,65.12,78.0,1012.0,53.0,6.13,ID,1596059725.0
594,samana,19.2030757,-69.3387664,91.4,75.0,1015.0,40.0,13.87,DO,1596017584.0
595,kampot,10.5942421,104.1640355,83.48,74.0,1009.0,40.0,9.17,KH,1596063108.0
